{\rtf1\ansi\ansicpg1252\cocoartf1404\cocoasubrtf110
{\fonttbl\f0\froman\fcharset0 Times-Roman;}
{\colortbl;\red255\green255\blue255;}
\paperw11900\paperh16840\margl1440\margr1440\vieww10800\viewh8400\viewkind0
\deftab720
\pard\pardeftab720\partightenfactor0

\f0\fs32 \cf0 \expnd0\expndtw0\kerning0
[\{"building_name": "Union Bridge", "building_type": "1", "height": "", "id": 1, "latitude": "57.1458", "longitude": "-2.1017", "post_code": "AB11 6BG", "street_name": "Union Bridge", "url": "http://www.silvercityvault.org.uk/media.php?i=77&t=2&p=1&dg=08d06b2ae1f8dc4f4a6ec6b3004c0d0ef8845f8d", "year_built": "1801", "year_demolished": "", "year_end": "", "year_start": "1805"\}, \{"building_name": "Waterstones", "building_type": "2", "height": "", "id": 2, "latitude": "57.1458", "longitude": "-2.1017", "post_code": "AB11 6BG", "street_name": "Union Bridge", "url": "http://statics.192.com/estreet/original/large/2143/21436924.jpg", "year_built": "2008", "year_demolished": "", "year_end": "", "year_start": "2008"\}, \{"building_name": "Palace Hotel", "building_type": "5", "height": "", "id": 3, "latitude": "57.145993", "longitude": "-2.100878", "post_code": "AB11 6JL", "street_name": "Union Street", "url": "http://www.silvercityvault.org.uk/media.php?i=285&t=2&p=1", "year_built": "1873", "year_demolished": "1950", "year_end": "1941", "year_start": "1873"\}, \{"building_name": "Pratt & Keith", "building_type": "2", "height": "", "id": 4, "latitude": "57.145993", "longitude": "-2.100878", "post_code": "AB11 6JL", "street_name": "Union Street", "url": "", "year_built": "1873", "year_demolished": "1950", "year_end": "1941", "year_start": "1873"\}, \{"building_name": "C&A", "building_type": "2", "height": "", "id": 5, "latitude": "57.145993", "longitude": "-2.100878", "post_code": "AB11 6JL", "street_name": "Union Street", "url": "https://www.flickr.com/photos/iainh124a/11160559975/sizes/l", "year_built": "Unknown", "year_demolished": "", "year_end": "1990s", "year_start": "Unknown"\}, \{"building_name": "Travelodge", "building_type": "5", "height": "", "id": 6, "latitude": "57.145993", "longitude": "-2.100878", "post_code": "AB11 6JL", "street_name": "Union Street", "url": "http://statics.192.com/estreet/original/large/2270/22703564.jpg", "year_built": "Unknown", "year_demolished": "", "year_end": "", "year_start": "Unknown"\}, \{"building_name": "Prince Albert", "building_type": "6", "height": "", "id": 7, "latitude": "57.147416", "longitude": "-2.105107", "post_code": "AB10 1NN", "street_name": "Union Bridge/Union Terrace", "url": "https://c2.staticflickr.com/8/7240/7379525154_bab7c5cc6b.jpg", "year_built": "Unknown", "year_demolished": "", "year_end": "", "year_start": "Unknown"\}, \{"building_name": "King Edward VII", "building_type": "6", "height": "", "id": 8, "latitude": "57.145739", "longitude": "-2.102133", "post_code": "", "street_name": "Union Bridge/Union Terrace", "url": "http://www.silvercityvault.org.uk/index.php?a=ViewItem&key=SXsiTiI6MTIsIlAiOnsidmFsdWUiOiJraW5nIGVkd2FyZCIsIm9wZXJhdG9yIjoiMSIsImZ1enp5UHJlZml4TGVuZ3RoIjoiNSIsImZ1enp5TWluU2ltaWxhcml0eSI6MC44LCJtYXhTdWdnZXN0aW9ucyI6IjUiLCJhbHdheXNTdWdnZXN0IjpudWxsfX0&pg=8&WINID=1445683389105#gdZtg-ov-90AAAFQmXIyBQ/1147", "year_built": "Unknown", "year_demolished": "", "year_end": "", "year_start": "Unknown"\}, \{"building_name": "Northern Union Assurance", "building_type": "2", "height": "", "id": 9, "latitude": "57.146373", "longitude": "-2.102722", "post_code": "AB10 1NJ", "street_name": "Union Street", "url": "http://heritage.aviva.com/library/media/filer_public_thumbnails/filer_public/3f/fb/3ffbe47f-4d79-452e-92ae-f2f8b453018f/northern_assurance_press_ad_1920.jpg__250x177_q85_subsampling-2_upscale.jpg", "year_built": "1914", "year_demolished": "", "year_end": "", "year_start": "1914"\}, \{"building_name": "The Monkey House", "building_type": "10", "height": "", "id": 10, "latitude": "57.146373", "longitude": "-2.102722", "post_code": "AB10 1NJ", "street_name": "Union Street", "url": "http://www.key-moves.co.uk/images/unionterr2.jpg", "year_built": "Unknown", "year_demolished": "", "year_end": "", "year_start": "Unknown"\}, \{"building_name": "Union Terrace Gardens", "building_type": "8", "height": "", "id": 11, "latitude": "57.147094", "longitude": "-2.103834", "post_code": "", "street_name": "Union Terrace", "url": "http://www.silvercityvault.org.uk/media.php?i=89&t=2&p=1&dg=61fa34772c5b6ca9d6f045bb485e7aebe484023e", "year_built": "1879", "year_demolished": "", "year_end": "", "year_start": "1879"\}, \{"building_name": "St Nicholas Churchyard", "building_type": "9", "height": "", "id": 12, "latitude": "57.1477", "longitude": "-2.099235", "post_code": "AB10 1JL", "street_name": "Union Street", "url": "http://www.silvercityvault.org.uk/media.php?i=368&t=2&p=1&dg=cfb6c25977d342d65c6111caf89267be707e6820", "year_built": "1157", "year_demolished": "", "year_end": "1912", "year_start": "1157"\}, \{"building_name": "Queen's Cinema", "building_type": "10", "height": "", "id": 13, "latitude": "57.1477", "longitude": "-2.099235", "post_code": "AB10 1JL", "street_name": "Union Street", "url": "https://i2.wp.com/www.pressandjournal.co.uk/wp-content/uploads/sites/2/2014/11/queens-cinema-e1415791786582.jpg", "year_built": "1157", "year_demolished": "", "year_end": "1981", "year_start": "1912"\}, \{"building_name": "Denburn Valley Railway", "building_type": "4", "height": "", "id": 14, "latitude": "57.146628", "longitude": "-2.102719", "post_code": "", "street_name": "Union Terrace", "url": "http://www.silvercityvault.org.uk/index.php?a=ZoomItem&i=48&WINID=1445772809412", "year_built": "1867", "year_demolished": "", "year_end": "", "year_start": "1867"\}, \{"building_name": "The Royal Hotel", "building_type": "5", "height": "", "id": 15, "latitude": "57.144936", "longitude": "-2.102201", "post_code": "AB11 6BJ", "street_name": "Bath Street", "url": "https://i1.wp.com/www.pressandjournal.co.uk/wp-content/uploads/sites/2/2015/02/ROYAL-HOTEL-BATH-STREET.jpg", "year_built": "1879", "year_demolished": "", "year_end": "", "year_start": "1879"\}, \{"building_name": "The New Market", "building_type": "2", "height": "", "id": 16, "latitude": "57.146695", "longitude": "-2.098237", "post_code": "AB11 6BD", "street_name": "Union Street", "url": "http://www.silvercityvault.org.uk/index.php?a=ZoomItem&i=8&WINID=1445773805349", "year_built": "1842", "year_demolished": "", "year_end": "", "year_start": "1842"\}, \{"building_name": "Woolworths", "building_type": "2", "height": "", "id": 17, "latitude": "57.146454", "longitude": "-2.099241", "post_code": "AB11 6BH", "street_name": "Union Street", "url": "https://www.historypin.org/services/thumb/phid/271426/dim/451x302/crop/1/", "year_built": "1926", "year_demolished": "", "year_end": "1990", "year_start": "1926"\}, \{"building_name": "McDonalds", "building_type": "11", "height": "", "id": 18, "latitude": "57.146454", "longitude": "-2.099241", "post_code": "AB11 6BH", "street_name": "Union Street", "url": "http://lh5.ggpht.com/64ID8qD5SWXm4vs_J8usJZ7k9JnuwWZBCXiWY7jvSqDm2I5J_gB2RgaeE87yHyX3kdioEcWVztRdw3Nk=s320", "year_built": "1926", "year_demolished": "", "year_end": "", "year_start": "1990"\}, \{"building_name": "Boots", "building_type": "2", "height": "", "id": 19, "latitude": "57.14618", "longitude": "-2.101828", "post_code": "AB11 6BB", "street_name": "Union Street", "url": "", "year_built": "Unknown", "year_demolished": "", "year_end": "", "year_start": "Unknown"\}, \{"building_name": "Triple Kirks", "building_type": "11", "height": "", "id": 20, "latitude": "57.147815", "longitude": "-2.102431", "post_code": "AB10 1JT", "street_name": "Belmont Street", "url": "http://www.churches-uk-ireland.org/images/aberd/aberdeen_city/e_free.jpg", "year_built": "1844", "year_demolished": "", "year_end": "", "year_start": "1844"\}, \{"building_name": "The Triple Kirk", "building_type": "9", "height": "", "id": 21, "latitude": "57.147815", "longitude": "-2.102431", "post_code": "AB10 1JT", "street_name": "Belmont Street", "url": "http://www.silvercityvault.org.uk/index.php?a=ZoomItem&i=493&WINID=1445773337404", "year_built": "Unknown", "year_demolished": "", "year_end": "", "year_start": "Unknown"\}, \{"building_name": "The Music Hall", "building_type": "11", "height": "", "id": 22, "latitude": "57.145955", "longitude": "-2.104866", "post_code": "AB10 1QS", "street_name": "Union Street", "url": "http://www.silvercityvault.org.uk/index.php?a=ViewItem&key=SXsiTiI6NDUsIlAiOnsidmFsdWUiOiJtdXNpYyBoYWxsIiwib3BlcmF0b3IiOiIxIiwiZnV6enlQcmVmaXhMZW5ndGgiOiI1IiwiZnV6enlNaW5TaW1pbGFyaXR5IjowLjgsIm1heFN1Z2dlc3Rpb25zIjoiNSIsImFsd2F5c1N1Z2dlc3QiOm51bGx9fQ&pg=6&WINID=1445773135863#_s5MSEv35xUAAAFQnsXhkg/284", "year_built": "1822", "year_demolished": "", "year_end": "", "year_start": "1859"\}, \{"building_name": "St Mary's Roman Cathedral", "building_type": "9", "height": "", "id": 23, "latitude": "57.146089", "longitude": "-2.106333", "post_code": "AB10 1SH", "street_name": "Huntly Street", "url": "https://www.scotlandschurchestrust.org.uk/site/uploads/church/gallery/23b07967e88a18122d93b30ac1d15b37.jpg", "year_built": "1860", "year_demolished": "", "year_end": "", "year_start": "1860"\}]}